[{"id":"00","title":"CityLar","city":"Cuiabá - Prainha - MT","address":"Rua 13 de Junho, 298,Cuiabá - MT,","latitude":"-15.8925","longitude":"-56.111497"},
{"id":"10","title":"CityLar","city":"Cuiabá - Planeta -MT","address":"Av. Fernando Corrêa da Costa, 2390 ","latitude":"-15.616793","longitude":"-56.0707189"},
{"id":"23","title":"CityLar","city":"Várzea Grande - Cristo Rei - MT","address":"R. Ary Paes Barreto, 1852 - Cristo Rei,Várzea Grande - MT,","latitude":"-15.46669","longitude":"-56.113191"},
{"id":"24","title":"CityLar","city":"Cuiabá - CPA III - MT","address":"R. Sorocaba, 2 - Cpa II,Cuiabá - MT","latitude":"-15.5787","longitude":"-56.0547771"},
{"id":"31","title":"CityLar","city":"Cuiabá - Shopping 3 Américas - MT","address":"Av. Brasília, 146 - Jardim das Américas","latitude":"-15.6101387","longitude":"-56.0689975"},
{"id":"33","title":"CityLar","city":"Cuiabá - CPA I - MT","address":"","latitude":"-15.5958175","longitude":"-56.1003887"},
{"id":"45","title":"CityLar","city":"VG - Couto Magalhães - MT","address":"Av. Couto Magalhães, 2104 - Centro Norte","latitude":"-15.6477481","longitude":"-56.140929"},
{"id":"145","title":"CityLar","city":"Cuiabá - Pedra 90 - MT","address":"Av. Integração Um - Pedra 90","latitude":"-15.6101387","longitude":"-56.082.143"},
{"id":"155","title":"CityLar","city":"Cuiabá - Shopping Pantanal - MT","address":"Av. Hist. Rubens de Mendonça, 3300 - Jardim Aclimaca","latitude":"-15.5769061","longitude":"-56.0737214"},
{"id":"247","title":"CityLar","city":"Poconé -MT","address":"Av. Aníbal de Tolêdo, 1830,Poconé","latitude":"-16.2547113","longitude":"-56.6262688"},
{"id":"265","title":"CityLar","city":"VG - Alzira Santana - MT","address":"Av. Alzira Santana, 1022 - Nova Várzea Grande","latitude":"-15.6589482","longitude":"-56.1387322"},
{"id":"266","title":"CityLar","city":"Cuiabá - Shopping Goiabeiras - MT","address":"Goiabeiras Shopping,R. Des. José Barros do Valê, 500 - 266 - Duque de Caxias","latitude":"-15.6080374","longitude":"-56.1266549"},
{"id":"268","title":"CityLar","city":"Cuiabá - 13 de Junho (Ipiranga) - MT","address":"Rua 13 de Junho, 116 - Centro","latitude":"-15.6011673","longitude":"-56.1155819"},
{"id":"269","title":"CityLar","city":"VG - Jaime Campos - MT","address":"Av. Gov. Júlio Campos, 3740 - Jardim Glória II","latitude":"-15.6476111","longitude":"-56.1510184"},
{"id":"270","title":"CityLar","city":"VG - Couto Magalhães - MT","address":"Av. Couto Magalhães, 2104 - Centro Norte","latitude":"-15.6479219","longitude":"-56.1397981"},
{"id":"280","title":"CityLar","city":"Cuiabá - Tijucal -MT","address":"Av. Espigão, 280 - Tijucal","latitude":"-15.6345084","longitude":"-56.0234405"},
{"id":"285","title":"CityLar","city":"Cuiabá - Estrada do Moinho - MT","address":"Av. Jorn. Arquimedes Pereira Lima, 3228 - Santa Cruz","latitude":"-15.6135278","longitude":"-56.0516848"},
{"id":"286","title":"CityLar","city":"VG - Couto Magalhães - MT","address":"Av. Couto Magalhães, 2104 - Centro Norte","latitude":"-15.6477481","longitude":"-56.140929"},
{"id":"313","title":"CityLar","city":"Varzea Grande Shopping","address":"R. Pres. Prudente de Morães, s/n - Jardim Aeroporto","latitude":"-15.6526208","longitude":"-56.1250974"},
{"id":"11","title":"CityLar","city":"Campo Novo do Parecis - MT","address":"Av. Brasil, 654,Campo Novo do Parecis","latitude":"-13.6615453","longitude":"-57.8910795"},
{"id":"17","title":"CityLar","city":"Juara - MT","address":"Av. Rio Arinos, 472,Juara","latitude":"-11.2568918","longitude":"-57.5127331"},
{"id":"18","title":"CityLar","city":"Nova Mutum - MT","address":",Av. dos Uirapurus, 150 - Residencial,Nova Mutum","latitude":"-13.8226496","longitude":"-56.0921806"},
{"id":"36","title":"CityLar","city":"Tangará da Serra - MT","address":"Av. Brasil, 670W - Centro,Tangará da Serra","latitude":"-14.6108085","longitude":"-57.4762981"},
{"id":"37","title":"CityLar","city":"Alta Floresta - MT","address":"Av. Ludovico da Riva Neto, 2559 - St E","latitude":"-9.8680027","longitude":"-56.0870863"},
{"id":"38","title":"CityLar","city":"Jaciara - MT","address":"Av. Antônio Ferreira Sobrinho, 1261","latitude":"-15.9450249","longitude":"-54.9817465"},
{"id":"39","title":"CityLar","city":"Primavera do Leste - MT","address":"Av. Pôrto Alegre, 1121,Primavera do Leste","latitude":"-15.5515952","longitude":"-54.3008127"},
{"id":"41","title":"CityLar","city":"Rondonopolis - MT","address":"Av. Amazonas, 1204 - Centro","latitude":"-16.4697392","longitude":"-54.6310493"},
{"id":"42","title":"CityLar","city":"Juina - MT","address":"Av. Mato Grosso, 800 - Centro","latitude":"-11.4193548","longitude":"-58.7649264"},
{"id":"43","title":"CityLar","city":"Sinop - MT","address":"Av. Gov. Júlio Campos, 207 - St. Comercial","latitude":"-12.2004154","longitude":"-55.7959092"},
{"id":"44","title":"CityLar","city":"Campo Verde - MT","address":"R. Belém,Campo Verde","latitude":"-15.5483564","longitude":"-55.1698283"},
{"id":"46","title":"CityLar","city":"Lucas do Rio Verde - MT","address":"Av. Mato Grosso, 392 - Centro","latitude":"-13.0673319","longitude":"-55.9213355"},
{"id":"47","title":"CityLar","city":"Sorriso - MT","address":"R. Benê, 790,Sorriso","latitude":"-12.4705","longitude":"-55.7176773"},
{"id":"48","title":"CityLar","city":"Colíder - MT","address":"Av. Col Orlando Carlos Vieira, 574","latitude":"-10.8123455","longitude":"-55.4569479"},
{"id":"234","title":"CityLar","city":"São Jose do Rio Claro - MT","address":"Av. Júlio Campos, 555 - Centro","latitude":"-13.4466388","longitude":"-56.7239427"},
{"id":"249","title":"CityLar","city":"Nobres - MT","address":"R. Juscelino Kubitscheck, 244,Nobres","latitude":"-14.7186738","longitude":"-56.3367503"},
{"id":"250","title":"CityLar","city":"Diamantino - MT","address":"rua Des J P F Mendes","latitude":"-14.4124077","longitude":"-56.4536986"},
{"id":"252","title":"CityLar","city":"Tapurah - MT","address":"av Romualdo Allievi 1272","latitude":"-12.7427979","longitude":"-56.514717"},
{"id":"253","title":"CityLar","city":"Sinop - MT","address":"rua Alberto Baranjall,Jardim Santa Monica","latitude":"-11.7678314","longitude":"-55.6868979"},
{"id":"282","title":"CityLar","city":"Rondonopolis - MT","address":"Av. Amazonas, 1204 - Centro","latitude":"-16.4697392","longitude":"-54.6310493"},
{"id":"311","title":"CityLar","city":"Paranatinga - MT","address":"Av. Brasil, 1270,Paranatinga","latitude":"-14.4293006","longitude":"-54.0536796"},
{"id":"312","title":"CityLar","city":"Sinop - MT","address":"rua Alberto Baranjall,Jardim Santa Monica","latitude":"-11.7678314","longitude":"-55.6868979"},
{"id":"1","title":"CityLar","city":"Mirassol d' Oeste - MT","address":"R. Vinte e Oito de Outubro, 2687,Mirassol D'Oeste","latitude":"-15.6951","longitude":"-58.0847981"},
{"id":"4","title":"CityLar","city":"04 Marcos - MT","address":"Av. São Paulo, 1145","latitude":"-15.6271191","longitude":"-58.1849302"},
{"id":"6","title":"CityLar","city":"Araputanga - MT","address":"Av. Castelo Branco, 261,Araputanga","latitude":"-15.4695548","longitude":"-58.3543157"},
{"id":"7","title":"CityLar","city":"Pontes e Lacerda - MT","address":"Av. Mal. Rondon, 1341,Pontes e Lacerda","latitude":"-15.2309686","longitude":"-59.3344174"},
{"id":"9","title":"CityLar","city":"Cáceres - MT","address":"Rua Cel Farias, 219 - Centro","latitude":"-15.4307793","longitude":"-57.7384133"}]
