[{"id":5,"title":"Gazin","city":"SÃO JOSÉ DO RIO CLARO","address":"AV. URUGUAI, 532","neighborhood":"CENTRO","state":"MT","postal_code":"78435000","phone":"66 - 33861125","latitude":"-15.6144073","longitude":"-56.041807"},
{"id":6,"title":"Gazin","city":"ARENÁPOLIS","address":"RUA GUILHERME GRUNUWALDE, 297","neighborhood":"CENTRO","state":"MT","postal_code":"78420000","phone":"65 - 33431185","latitude":"-14.4528368","longitude":"-56.8463997"},
{"id":7,"title":"Gazin","city":"DIAMANTINO","address":"RUA BENEDITO MOREIRA, 260","neighborhood":"CENTRO","state":"MT","postal_code":"78400000","phone":"65 - 33366000","latitude":"-15.6144073","longitude":"-56.41807"},
{"id":8,"title":"Gazin","city":"NOBRES","address":"R. JUSCELINO KUBITSCHEK, 315","neighborhood":"CENTRO","state":"MT","postal_code":"78460000","phone":"65 - 33761911","latitude":"-14.7244228","longitude":"-56.348569"},
{"id":9,"title":"Gazin","city":"TANGARÁ DA SERRA","address":"AV. TANCREDO NEVES, 171","neighborhood":"CENTRO","state":"MT","postal_code":"78300000","phone":"66 - 33117500","latitude":"-14.6208455","longitude":"-57.4885016"},
{"id":10,"title":"Gazin","city":"SÃO JOSÉ DOS QUATRO MARCOS","address":"AV.MATO GROSSO, , 732","neighborhood":"CENTRO","state":"MT","postal_code":"78285000","phone":"65 - 32511256","latitude":"-15.6262808","longitude":"-58.1832537"},
{"id":11,"title":"Gazin","city":"PONTES E LACERDA","address":"Avenida Marechal Rondon, 1212","neighborhood":"CENTRO","state":"MT","postal_code":"78250000","phone":"65 - 32662597","latitude":"-15.2304278","longitude":"-59.3354986"},
{"id":12,"title":"Gazin","city":"BARRA DO BUGRES","address":"AV. HITLER SANSAO, 979","neighborhood":"CENTRO","state":"MT","postal_code":"78390000","phone":"65 - 33611566","latitude":"-15.0682598","longitude":"-57.1833117"},
{"id":13,"title":"Gazin","city":"POCONÉ","address":"AV. ANIBAL DE TOLEDO, 1490","neighborhood":"CENTRO","state":"MT","postal_code":"78175000","phone":"65 - 33451589","latitude":"-16.2557868","longitude":"-56.6280847"},
{"id":14,"title":"Gazin","city":"JUÍNA","address":"AV. MATO GROSSO, 750","neighborhood":"CENTRO","state":"MT","postal_code":"78320000","phone":"66 - 35661382","latitude":"-11.4191244","longitude":"-58.7645995"},
{"id":15,"title":"Gazin","city":"CUIABÁ","address":"AV. CARMINDO DE CAMPOS, 1501","neighborhood":"CAMPO VELHO","state":"MT","postal_code":"78065300","phone":"65 - 36167500","latitude":"-15.6209933","longitude":"-56.0836848"},
{"id":16,"title":"Gazin","city":"SORRISO","address":"AV. NATALINO J BRESCANSIN, 145","neighborhood":"CENTRO","state":"MT","postal_code":"78890000","phone":"66 - 35452850","latitude":"-12.5500638","longitude":"-55.7171157"},
{"id":17,"title":"Gazin","city":"CÁCERES","address":"6 DE OUTUBRO, 712","neighborhood":"CENTRO","state":"MT","postal_code":"78200000","phone":"65 - 32116750","latitude":"-16.0685283","longitude":"-57.6799713"},
{"id":18,"title":"Gazin","city":"PRIMAVERA DO LESTE","address":"R. SAO JOAO, 227","neighborhood":"CENTRO","state":"MT","postal_code":"78850000","phone":"66 - 35002550","latitude":"-15.5571188","longitude":"-54.2956226"},
{"id":19,"title":"Gazin","city":"CAMPO NOVO DO PARECIS","address":"AV. BRASIL, 914","neighborhood":"CENTRO","state":"MT","postal_code":"78360000","phone":"65 - 33821319","latitude":"-13.6549688","longitude":"-57.8929967"},
{"id":20,"title":"Gazin","city":"SINOP","address":"AV. GOV JULIO CAMPOS, 208","neighborhood":"CENTRO","state":"MT","postal_code":"78550260","phone":"66 - 35332500","latitude":"-11.8570138","longitude":"-55.5009207"},
{"id":23,"title":"Gazin","city":"CAMPO VERDE","address":"R. JOAO PESSOA, 728","neighborhood":"CENTRO","state":"MT","postal_code":"78840000","phone":"66 - 34191090","latitude":"-15.5482838","longitude":"-55.1708617"},
{"id":29,"title":"Gazin","city":"RONDONÓPOLIS","address":"AV. MARECHAL RONDON, 1150","neighborhood":"CENTRO","state":"MT","postal_code":"78700075","phone":"66 - 34109000","latitude":"-16.4703675","longitude":"-54.6299642"},
{"id":30,"title":"Gazin","city":"LUCAS DO RIO VERDE","address":"AVENIDA MATO GROSSO, 525","neighborhood":"CENTRO","state":"MT","postal_code":"78455000","phone":"65 - 35492733","latitude":"-13.0675605","longitude":"-55.9203243"},
{"id":32,"title":"Gazin","city":"ALTA FLORESTA","address":"AV. LUDOVICO DA RIVA NETO, 2780","neighborhood":"CENTRO","state":"MT","postal_code":"78580000","phone":"66 - 35123800","latitude":"-9.874185","longitude":"-56.084227"},
{"id":39,"title":"Gazin","city":"COLÍDER","address":"AV. MARECHAL RONDON, 915","neighborhood":"CENTRO","state":"MT","postal_code":"78500000","phone":"66 - 35412040","latitude":"-10.8136613","longitude":"-55.4557705"},
{"id":41,"title":"Gazin","city":"SINOP","address":"AV. DAS ITAUBAS, 3827","neighborhood":"SETOR COMERCIAL","state":"MT","postal_code":"78550000","phone":"66 - 35201200","latitude":"-11.8511617","longitude":"-55.5117737"},
{"id":43,"title":"Gazin","city":"BARRA DO GARÇAS","address":"R. AMARO LEITE, 742","neighborhood":"CENTRO","state":"MT","postal_code":"78600000","phone":"66 - 34024250","latitude":"-15.8914697","longitude":"-52.2653782"},
{"id":47,"title":"Gazin","city":"NOVA MUTUM","address":"AV. PERIMETRAL DAS SAMAMBAIAS, 685-N","neighborhood":"CENTRO","state":"MT","postal_code":"78450000","phone":"66 - 34612122","latitude":"-13.8155718","longitude":"-56.0776957"},
{"id":49,"title":"Gazin","city":"VERA","address":"AV. BRASIL, 1737","neighborhood":"CENTRO","state":"MT","postal_code":"78880000","phone":"66 - 35831590","latitude":"-12.2905702","longitude":"-55.2981537"},
{"id":51,"title":"Gazin","city":"GUARANTÃ DO NORTE","address":"RUA DOS CAJUEIROS, 224","neighborhood":"CENTRO","state":"MT","postal_code":"78520000","phone":"66 - 35521287","latitude":"-10.2054281","longitude":"-54.9982767"},
{"id":52,"title":"Gazin","city":"JUARA","address":"R. NELSON TABORDA LACERDA, 60","neighborhood":"CENTRO","state":"MT","postal_code":"78575000","phone":"66 - 35565020","latitude":"-11.2557838","longitude":"-57.5122702"},
{"id":56,"title":"Gazin","city":"MIRASSOL D'OESTE","address":"R. 28 DE OUTUBRO, 2646","neighborhood":"CENTRO","state":"MT","postal_code":"78280000","phone":"65 - 32412939","latitude":"-15.6734798","longitude":"-58.0982277"},
{"id":61,"title":"Gazin","city":"JACIARA","address":"AV. ANTONIO FERREIRA SOBRINHO, 1319","neighborhood":"CENTRO","state":"MT","postal_code":"78820000","phone":"66 - 34612261","latitude":"-15.9648108","longitude":"-54.9710897"},
{"id":64,"title":"Gazin","city":"PARANATINGA","address":"AV. BRASIL, 1355","neighborhood":"CENTRO","state":"MT","postal_code":"78870000","phone":"66 - 35731834","latitude":"-14.4287348","longitude":"-54.0540757"},
{"id":84,"title":"Gazin","city":"CANARANA","address":"AV. RIO GRANDE DO SUL, 166","neighborhood":"CENTRO","state":"MT","postal_code":"78640000","phone":"66 - 34783361","latitude":"-13.5582098","longitude":"-52.2706557"},
{"id":87,"title":"Gazin","city":"NOVA OLÍMPIA","address":"R. CARLOS GOMES BEZERRA, 380","neighborhood":"CENTRO","state":"MT","postal_code":"78370000","phone":"65 - 33321820","latitude":"-14.7812298","longitude":"-57.2885937"},
{"id":88,"title":"Gazin","city":"TANGARÁ DA SERRA","address":"R. COXIPONÉS, 258","neighborhood":"VILA ARAPUTANGA","state":"MT","postal_code":"78300000","phone":"65 - 33263093","latitude":"-14.6158098","longitude":"-57.5048127"},
{"id":89,"title":"Gazin","city":"NOVA XAVANTINA","address":"AV. COUTO MAGALHAES, 319","neighborhood":"CENTRO","state":"MT","postal_code":"78690000","phone":"66 - 34382873","latitude":"-14.6666395","longitude":"-52.3551455"},
{"id":93,"title":"Gazin","city":"ÁGUA BOA","address":"R. 05, 410","neighborhood":"CENTRO","state":"MT","postal_code":"78635000","phone":"66 - 34682584","latitude":"-14.0505392","longitude":"-52.1601375"},
{"id":95,"title":"Gazin","city":"COMODORO","address":"AV. MATO GROSSO, 98 N","neighborhood":"CENTRO","state":"MT","postal_code":"78310000","phone":"65 - 32832755","latitude":"-13.6591868","longitude":"-59.7956227"},
{"id":100,"title":"Gazin","city":"RONDONÓPOLIS","address":"AV. AMAZONAS, 1077","neighborhood":"CENTRO","state":"MT","postal_code":"78700050","phone":"66 - 34213001","latitude":"-16.4703688","longitude":"-54.6318567"},
{"id":101,"title":"Gazin","city":"TAPURAH","address":"AV. MATO GROSSO, 70","neighborhood":"CENTRO","state":"MT","postal_code":"78573000","phone":"66 - 35471827","latitude":"-12.7405678","longitude":"-56.5176557"},
{"id":107,"title":"Gazin","city":"SAPEZAL","address":"R. RUA DO CASCUDO, 0","neighborhood":"CENTRO","state":"MT","postal_code":"78365000","phone":"65 - 33831907","latitude":"-13.5438082","longitude":"-58.8190997"},
{"id":111,"title":"Gazin","city":"PEDRA PRETA","address":"AVENIDA PRESIDENTE MEDICE, 1069","neighborhood":"CENTRO","state":"MT","postal_code":"78795000","phone":"66 - 34862868","latitude":"-16.6200848","longitude":"-54.4722187"},
{"id":112,"title":"Gazin","city":"MARCELÂNDIA","address":"AV. COLONIZADOR JOSE BIANCHINI, 750","neighborhood":"CENTRO","state":"MT","postal_code":"78535000","phone":"66 - 35361311","latitude":"-11.0930187","longitude":"-54.5142907"},
{"id":118,"title":"Gazin","city":"BARRA DO GARÇAS","address":"AV. MIN JOAO ALBERTO, 891","neighborhood":"CENTRO","state":"MT","postal_code":"78600000","phone":"66 - 34024300","latitude":"-15.8896948","longitude":"-52.2669152"},
{"id":119,"title":"Gazin","city":"ARIPUANÃ","address":"AV. DOIS DE DEZEMBRO, 1487","neighborhood":"CIDADE ALTA","state":"MT","postal_code":"78325000","phone":"66 - 35652094","latitude":"-10.1751547","longitude":"-59.4500157"},
{"id":123,"title":"Gazin","city":"JACIARA","address":"ROD BR 364 KM 271 SL 01, 01","neighborhood":"ZONA RURAL","state":"MT","postal_code":"78820000","phone":"66 - 34616009","latitude":"-15.9746274","longitude":"-54.9394887"},
{"id":124,"title":"Gazin","city":"JUSCIMEIRA","address":"AV. JK, 1480","neighborhood":"CENTRO","state":"MT","postal_code":"78810000","phone":"66 - 34612138","latitude":"-16.0524688","longitude":"-54.8876787"},
{"id":126,"title":"Gazin","city":"ARAPUTANGA","address":"AV. 23 DE MAIO, 982","neighborhood":"CENTRO","state":"MT","postal_code":"78260000","phone":"65 - 32611245","latitude":"-15.4702478","longitude":"-58.3553837"},
{"id":129,"title":"Gazin","city":"ALTO GARÇAS","address":"AV. 7 DE SETEMBRO, 603","neighborhood":"CENTRO","state":"MT","postal_code":"78770000","phone":"66 - 34713100","latitude":"-16.943746","longitude":"-53.5329358"},
{"id":130,"title":"Gazin","city":"ALTO ARAGUAIA","address":"AVENIDA CARLOS HUGUENEY, 1117","neighborhood":"CENTRO","state":"MT","postal_code":"78780000","phone":"66 - 34815600","latitude":"-17.3114939","longitude":"-53.2214287"},
{"id":131,"title":"Gazin","city":"BRASNORTE","address":"R. CASCAVEL, 0","neighborhood":"CENTRO","state":"MT","postal_code":"78350000","phone":"66 - 35921475","latitude":"-12.1241657","longitude":"-58.0052377"},
{"id":132,"title":"Gazin","city":"SINOP","address":"RUA COLONIZADOR ÊNIO PIPINO, 565","neighborhood":"SÃO CRISTOVÃO","state":"MT","postal_code":"78557484","phone":"66 - 35201250","latitude":"-58.6109498","longitude":"-55.5079508"},
{"id":133,"title":"Gazin","city":"CASTANHEIRA","address":"AV. IV DE JULHO, 559","neighborhood":"CENTRO","state":"MT","postal_code":"78345000","phone":"66 - 35811670","latitude":"-9.9537577","longitude":"-54.917436"},
{"id":134,"title":"Gazin","city":"PEIXOTO DE AZEVEDO","address":"AVENIDA BRASIL, 121","neighborhood":"CENTRO","state":"MT","postal_code":"78530000","phone":"66 - 35751213","latitude":"-10.2450212","longitude":"-54.9927979"},
{"id":135,"title":"Gazin","city":"RONDONÓPOLIS","address":"R. PRES CASTELO BRANCO, 745","neighborhood":"VILA OPERARIA","state":"MT","postal_code":"78740100","phone":"66 - 34263839","latitude":"-16.4393538","longitude":"-54.6273347"},
{"id":142,"title":"Gazin","city":"VILA BELA DA SANTÍSSIMA TRINDADE","address":"R. TRAVESSA DO PALACIO, 0","neighborhood":"CENTRO","state":"MT","postal_code":"78245000","phone":"65 - 32591039","latitude":"-15.0048098","longitude":"-59.9537097"},
{"id":144,"title":"Gazin","city":"CÁCERES","address":"AV. 07 DE SETEMBRO, 145","neighborhood":"CENTRO","state":"MT","postal_code":"78200000","phone":"65 - 32112200","latitude":"-16.0685558","longitude":"-57.6815463"},
{"id":147,"title":"Gazin","city":"VILA RICA","address":"AV. BRASIL, 412- VILA RICA, 412","neighborhood":"CENTRO","state":"MT","postal_code":"78645970","phone":"66 - 35542046","latitude":"-10.0140337","longitude":"-51.1170067"},
{"id":149,"title":"Gazin","city":"CONFRESA","address":"AV. CENTRO OESTE, 341","neighborhood":"CENTRO","state":"MT","postal_code":"78652970","phone":"66 - 35642097","latitude":"-10.6553477","longitude":"-51.5734007"},
{"id":170,"title":"Gazin","city":"RONDONÓPOLIS","address":"RUA BARÃO DO RIO BRANCO, 501","neighborhood":"CENTRO","state":"MT","postal_code":"78700180","phone":"66 - 34109050","latitude":"-12.9415378","longitude":"-51.8282367"},
{"id":171,"title":"Gazin","city":"QUERÊNCIA","address":"AV CUIABA, 0","neighborhood":"CENTRO","state":"MT","postal_code":"78643000","phone":"66 - 35921680","latitude":"-12.5910768","longitude":"-52.2102247"},
{"id":183,"title":"Gazin","city":"JURUENA","address":"AV. 24 DE SETEMBRO, 20","neighborhood":"CENTRO","state":"MT","postal_code":"78340000","phone":"66 - 35532006","latitude":"-10.3258497","longitude":"-58.4971697"},
{"id":185,"title":"Gazin","city":"COLNIZA","address":"AV. TARUMA, 309","neighborhood":"CENTRO","state":"MT","postal_code":"78335000","phone":"66 - 35712158","latitude":"-9.4558641","longitude":"-59.22255"},
{"id":250,"title":"Gazin","city":"ROSÁRIO OESTE","address":"R. Cel. Artur Borges, 1185,","neighborhood":"CENTRO","state":"MT","postal_code":"78470000","phone":"65 - 33562229","latitude":"-14.8245553","longitude":"-56.431792"},
{"id":197,"title":"Gazin","city":"NOVA MUTUM","address":"Avenida Uirapurus, 170 ","neighborhood":"Centro","state":"MT","postal_code":"78450000","phone":"65 - 33081705","latitude":"-13.8297198","longitude":"-56.0856447"},
{"id":202,"title":"Gazin","city":"CUIABÁ","address":"RUA TREZE DE JUNHO, 646","neighborhood":"CENTRO SUL","state":"MT","postal_code":"78020000","phone":"65 - 33221204","latitude":"-15.6023678","longitude":"-56.1012177"},
{"id":214,"title":"Gazin","city":"PONTES E LACERDA","address":"AV. MARECHAL RONDON, 2924","neighborhood":"JARDIM BELA VISTA 2","state":"MT","postal_code":"78250000","phone":"65 - 32661133","latitude":"-15.2377028","longitude":"-59.3242067"},
{"id":224,"title":"Gazin","city":"TANGARÁ DA SERRA","address":"AV. BRASIL, 965S","neighborhood":"CENTRO","state":"MT","postal_code":"78300000","phone":"65 - 33392500","latitude":"-14.6226548","longitude":"-57.4937517"},
{"id":226,"title":"Gazin","city":"PRIMAVERA DO LESTE","address":"AVENIDA BELO HORIZONTE, 381","neighborhood":"CENTRO LESTE","state":"MT","postal_code":"78850000","phone":"66 - 35002500","latitude":"-15.5572461","longitude":"-54.96034"},
{"id":237,"title":"Gazin","city":"ITIQUIRA","address":"R. José F de Carvalho, 0","neighborhood":"CENTRO","state":"MT","postal_code":"78790000","phone":"65 - 34911699","latitude":"-17.206388","longitude":"-54.1484195"},
{"id":247,"title":"Gazin","city":"MATUPÁ","address":"Rua Victor Fidelis Donini, 934","neighborhood":"CENTRO","state":"MT","postal_code":"78525000","phone":"65 - 35952430","latitude":"-10.1680547","longitude":"-54.9334217"},
{"id":248,"title":"Gazin","city":"CLÁUDIA","address":"Rua Gaspar Dutra, 1094","neighborhood":"CENTRO","state":"MT","postal_code":"78540000","phone":"66 - 35462339","latitude":"-11.5058507","longitude":"-54.8795077"},
{"id":255,"title":"Gazin","city":"SORRISO","address":"RUA SÃO FRANCISCO DE ASSIS, 793","neighborhood":"NOVOS CAMPOS","state":"MT","postal_code":"78890000","phone":"66 - 35445174","latitude":"-12.5638728","longitude":"-55.7129727"},
{"id":258,"title":"Gazin","city":"QUERÊNCIA","address":"AV. OESTE , 1","neighborhood":"SETOR E","state":"MT","postal_code":"78643000","phone":"66 - 35292275","latitude":"-12.5908799","longitude":"-52.2124658"},
{"id":262,"title":"Gazin","city":"NOVA UBIRATÃ","address":"AV TANCREDO NEVES, 0","neighborhood":"CENTRO","state":"MT","postal_code":"78888000","phone":"66 - 35791332","latitude":"-13.034623","longitude":"-55.254476"},
{"id":263,"title":"Gazin","city":"GAÚCHA DO NORTE","address":"AVENIDA BRASIL,, 1233","neighborhood":"CENTRO","state":"MT","postal_code":"78875000","phone":"66 - 35821006","latitude":"-13.1849868","longitude":"-53.2593277"},
{"id":280,"title":"Gazin","city":"RONDONÓPOLIS","address":"AVENIDA ARAPONGAS, 1383","neighborhood":"PARQUE RESIDENCIAL","state":"MT","postal_code":"78750215","phone":"44 - 34270516","latitude":"-16.4608516","longitude":"-54.7453"},
{"id":286,"title":"Gazin","city":"CÁCERES","address":"Av. Talhamares, 301","neighborhood":"Centro","state":"MT","postal_code":"78200000","phone":"65 - 32242945","latitude":"-16.0795658","longitude":"-57.6838967"},
{"id":287,"title":"Gazin","city":"LUCAS DO RIO VERDE","address":"AVENIDA MATO GROSSO, 1256","neighborhood":"ALVORADA","state":"MT","postal_code":"78455000","phone":"","latitude":"-13.0728472","longitude":"-55.9155667"},
{"id":288,"title":"Gazin","city":"JUÍNA","address":"Av. Londrina,, 134","neighborhood":"Setor D","state":"MT","postal_code":"78320000","phone":"66 - 35663212","latitude":"-11.4162247","longitude":"-58.7660707"},
{"id":293,"title":"Gazin","city":"CAMPOS DE JÚLIO","address":"AVENIDA VALDIR MASUTTI, 421-E","neighborhood":"CENTRO","state":"MT","postal_code":"78307000","phone":"","latitude":"-13.7206346","longitude":"-59.2611506"},
{"id":294,"title":"Gazin","city":"ALTO TAQUARI","address":"AVENIDA ANGÉLICA, 75","neighborhood":"CENTRO","state":"MT","postal_code":"78785000","phone":"","latitude":"-17.833734","longitude":"-53.2832137"}]
